{"displayFieldName":"PRE_DIR","fieldAliases":{"OBJECTID":"OBJECTID","HOUSENO":"HOUSENO","PRE_DIR":"PRE_DIR","SUFFIX":"SUFFIX","POST_DIR":"POST_DIR","POST_QUAL":"POST_QUAL","APT":"APT","CITY_LIMIT":"CITY_LIMIT","ACCURACY":"ACCURACY","ASSESSOR":"ASSESSOR","PRE_QUAL":"PRE_QUAL","XCOORD":"XCOORD","YCOORD":"YCOORD","STREET":"STREET","HISTORY":"HISTORY","ZIP":"ZIP","NOTES":"NOTES","CITY":"CITY","DRIVEWAY_NUM":"DRIVEWAY_NUM","ADDRESS_NUM":"ADDRESS_NUM","X":"X","Y":"Y","Z":"Z","EDIT_CODE":"EDIT_CODE","ALIAS":"ALIAS","GlobalID":"GlobalID"},"geometryType":"esriGeometryPoint","spatialReference":{"wkid":4326},"fields":[{"name":"OBJECTID","type":"esriFieldTypeOID","alias":"OBJECTID"},{"name":"HOUSENO","type":"esriFieldTypeInteger","alias":"HOUSENO"},{"name":"PRE_DIR","type":"esriFieldTypeString","alias":"PRE_DIR","length":1},{"name":"SUFFIX","type":"esriFieldTypeString","alias":"SUFFIX","length":11},{"name":"POST_DIR","type":"esriFieldTypeString","alias":"POST_DIR","length":1},{"name":"POST_QUAL","type":"esriFieldTypeString","alias":"POST_QUAL","length":10},{"name":"APT","type":"esriFieldTypeString","alias":"APT","length":17},{"name":"CITY_LIMIT","type":"esriFieldTypeString","alias":"CITY_LIMIT","length":2},{"name":"ACCURACY","type":"esriFieldTypeString","alias":"ACCURACY","length":10},{"name":"ASSESSOR","type":"esriFieldTypeString","alias":"ASSESSOR","length":16},{"name":"PRE_QUAL","type":"esriFieldTypeString","alias":"PRE_QUAL","length":10},{"name":"XCOORD","type":"esriFieldTypeDouble","alias":"XCOORD"},{"name":"YCOORD","type":"esriFieldTypeDouble","alias":"YCOORD"},{"name":"STREET","type":"esriFieldTypeString","alias":"STREET","length":35},{"name":"HISTORY","type":"esriFieldTypeString","alias":"HISTORY","length":35},{"name":"ZIP","type":"esriFieldTypeString","alias":"ZIP","length":8},{"name":"NOTES","type":"esriFieldTypeString","alias":"NOTES","length":35},{"name":"CITY","type":"esriFieldTypeString","alias":"CITY","length":35},{"name":"DRIVEWAY_NUM","type":"esriFieldTypeInteger","alias":"DRIVEWAY_NUM"},{"name":"ADDRESS_NUM","type":"esriFieldTypeInteger","alias":"ADDRESS_NUM"},{"name":"X","type":"esriFieldTypeDouble","alias":"X"},{"name":"Y","type":"esriFieldTypeDouble","alias":"Y"},{"name":"Z","type":"esriFieldTypeString","alias":"Z","length":8},{"name":"EDIT_CODE","type":"esriFieldTypeString","alias":"EDIT_CODE","length":15},{"name":"ALIAS","type":"esriFieldTypeString","alias":"ALIAS","length":45},{"name":"GlobalID","type":"esriFieldTypeGUID","alias":"GlobalID","length":38}],"features":[{"attributes":{"OBJECTID":64579816,"HOUSENO":4880,"PRE_DIR":"E","SUFFIX":"RD","POST_DIR":" ","POST_QUAL":"","APT":"","CITY_LIMIT":"0","ACCURACY":"1","ASSESSOR":"2420010000030001","PRE_QUAL":" ","XCOORD":-92.269846479999998,"YCOORD":38.785711200000001,"STREET":"CLELLIE HARMON","HISTORY":" ","ZIP":"65010","NOTES":" ","CITY":"ASHLAND","DRIVEWAY_NUM":26191,"ADDRESS_NUM":110,"X":1706020,"Y":1075026,"Z":"1","EDIT_CODE":"0204BCGIS","ALIAS":"","GlobalID":"{00000000-0000-0000-0000-000000000000}"},"geometry":{"x":-92.269846484403587,"y":38.785711209318976}},{"attributes":{"OBJECTID":64579817,"HOUSENO":12770,"PRE_DIR":"S","SUFFIX":"RD","POST_DIR":" ","POST_QUAL":" ","APT":" ","CITY_LIMIT":"0","ACCURACY":"1","ASSESSOR":"2330201000270001","PRE_QUAL":" ","XCOORD":-92.329366449999995,"YCOORD":38.800093599999997,"STREET":"ANDREW SAPP","HISTORY":" ","ZIP":"65010","NOTES":" ","CITY":"ASHLAND","DRIVEWAY_NUM":24807,"ADDRESS_NUM":9,"X":1689044,"Y":1080226,"Z":"1","EDIT_CODE":"0204BCGIS","ALIAS":"","GlobalID":"{00000000-0000-0000-0000-000000000000}"},"geometry":{"x":-92.329366454327854,"y":38.800093609123415}},{"attributes":{"OBJECTID":64579818,"HOUSENO":13853,"PRE_DIR":"S","SUFFIX":"RD","POST_DIR":" ","POST_QUAL":"","APT":"","CITY_LIMIT":"0","ACCURACY":"1","ASSESSOR":"2510007000010001","PRE_QUAL":" ","XCOORD":-92.197158799999997,"YCOORD":38.785153430000001,"STREET":"BOB VEACH","HISTORY":" ","ZIP":"65010","NOTES":" ","CITY":"ASHLAND","DRIVEWAY_NUM":16442,"ADDRESS_NUM":51,"X":1726740,"Y":1074883,"Z":"1","EDIT_CODE":"0204BCGIS","ALIAS":"","GlobalID":"{00000000-0000-0000-0000-000000000000}"},"geometry":{"x":-92.197158808773224,"y":38.785153439021734}},{"attributes":{"OBJECTID":64579819,"HOUSENO":8000,"PRE_DIR":"E","SUFFIX":"LN","POST_DIR":" ","POST_QUAL":" ","APT":" ","CITY_LIMIT":"0","ACCURACY":"1","ASSESSOR":"2490036000100001","PRE_QUAL":" ","XCOORD":-92.221292919999996,"YCOORD":38.718780989999999,"STREET":"GILMORE","HISTORY":" ","ZIP":"65010","NOTES":" ","CITY":"ASHLAND","DRIVEWAY_NUM":26404,"ADDRESS_NUM":248,"X":1719934,"Y":1050689,"Z":"1","EDIT_CODE":"0204BCGIS","ALIAS":"","GlobalID":"{00000000-0000-0000-0000-000000000000}"},"geometry":{"x":-92.221292921392788,"y":38.718780999306482}},{"attributes":{"OBJECTID":64579820,"HOUSENO":1400,"PRE_DIR":"E","SUFFIX":"RD","POST_DIR":" ","POST_QUAL":"","APT":"","CITY_LIMIT":"0","ACCURACY":"1","ASSESSOR":"2410007000060301","PRE_QUAL":" ","XCOORD":-92.324465290000006,"YCOORD":38.79040895,"STREET":"LEO SMITH","HISTORY":" ","ZIP":"65010","NOTES":" ","CITY":"ASHLAND","DRIVEWAY_NUM":31552,"ADDRESS_NUM":387,"X":1690448,"Y":1076702,"Z":"1","EDIT_CODE":"0604BCGIS","ALIAS":"","GlobalID":"{00000000-0000-0000-0000-000000000000}"},"geometry":{"x":-92.324465299459575,"y":38.790408954345587}},{"attributes":{"OBJECTID":64579821,"HOUSENO":1331,"PRE_DIR":"E","SUFFIX":"RD","POST_DIR":" ","POST_QUAL":"","APT":"","CITY_LIMIT":"0","ACCURACY":"1","ASSESSOR":"2410007000060001","PRE_QUAL":" ","XCOORD":-92.326416730000005,"YCOORD":38.789700150000002,"STREET":"LEO SMITH","HISTORY":" ","ZIP":"65010","NOTES":" ","CITY":"ASHLAND","DRIVEWAY_NUM":1075,"ADDRESS_NUM":386,"X":1689892,"Y":1076443,"Z":"1","EDIT_CODE":"0204BCGIS","ALIAS":"","GlobalID":"{00000000-0000-0000-0000-000000000000}"},"geometry":{"x":-92.326416732241753,"y":38.789700153533651}},{"attributes":{"OBJECTID":64579822,"HOUSENO":14250,"PRE_DIR":"S","SUFFIX":"RD","POST_DIR":" ","POST_QUAL":" ","APT":" ","CITY_LIMIT":"0","ACCURACY":"1","ASSESSOR":"2510007000160001","PRE_QUAL":" ","XCOORD":-92.212036889999993,"YCOORD":38.780493929999999,"STREET":"RANGELINE","HISTORY":" ","ZIP":"65010","NOTES":" ","CITY":"ASHLAND","DRIVEWAY_NUM":994,"ADDRESS_NUM":445,"X":1722504,"Y":1073172,"Z":"1","EDIT_CODE":"0204BCGIS","ALIAS":"","GlobalID":"{00000000-0000-0000-0000-000000000000}"},"geometry":{"x":-92.212036890708859,"y":38.780493930977904}},{"attributes":{"OBJECTID":64579823,"HOUSENO":750,"PRE_DIR":"E","SUFFIX":"LN","POST_DIR":" ","POST_QUAL":" ","APT":" ","CITY_LIMIT":"0","ACCURACY":"1","ASSESSOR":"2390025000150001","PRE_QUAL":" ","XCOORD":-92.336490080000004,"YCOORD":38.739583850000002,"STREET":"BATYE","HISTORY":" ","ZIP":"65039","NOTES":" ","CITY":"HARTSBURG","DRIVEWAY_NUM":656,"ADDRESS_NUM":573,"X":1687054,"Y":1058186,"Z":"1","EDIT_CODE":"0204BCGIS","ALIAS":"","GlobalID":"{00000000-0000-0000-0000-000000000000}"},"geometry":{"x":-92.336490083237265,"y":38.739583857795878}},{"attributes":{"OBJECTID":64579824,"HOUSENO":19600,"PRE_DIR":"S","SUFFIX":"LN","POST_DIR":" ","POST_QUAL":" ","APT":" ","CITY_LIMIT":"0","ACCURACY":"1","ASSESSOR":"2720004000010001","PRE_QUAL":" ","XCOORD":-92.277780899999996,"YCOORD":38.716362660000001,"STREET":"FREEMAN","HISTORY":" ","ZIP":"65039","NOTES":" ","CITY":"HARTSBURG","DRIVEWAY_NUM":25947,"ADDRESS_NUM":755,"X":1703820,"Y":1049764,"Z":"1","EDIT_CODE":"0204BCGIS","ALIAS":"","GlobalID":"{00000000-0000-0000-0000-000000000000}"},"geometry":{"x":-92.277780900813156,"y":38.716362666882688}},{"attributes":{"OBJECTID":64579825,"HOUSENO":24050,"PRE_DIR":"S","SUFFIX":"DR","POST_DIR":" ","POST_QUAL":" ","APT":" ","CITY_LIMIT":"0","ACCURACY":"1","ASSESSOR":"2760024000060601","PRE_QUAL":" ","XCOORD":-92.234432260000005,"YCOORD":38.661253379999998,"STREET":"MISSOURI RIVER VIEW","HISTORY":" ","ZIP":"65039","NOTES":" ","CITY":"HARTSBURG","DRIVEWAY_NUM":26497,"ADDRESS_NUM":831,"X":1716246,"Y":1029728,"Z":"1","EDIT_CODE":"0204BCGIS","ALIAS":"","GlobalID":"{00000000-0000-0000-0000-000000000000}"},"geometry":{"x":-92.234432267308392,"y":38.661253381053385}},{"attributes":{"OBJECTID":64579826,"HOUSENO":6063,"PRE_DIR":"E","SUFFIX":"RD","POST_DIR":" ","POST_QUAL":" ","APT":" ","CITY_LIMIT":"0","ACCURACY":"1","ASSESSOR":"2760023000080701","PRE_QUAL":" ","XCOORD":-92.257460429999995,"YCOORD":38.667493989999997,"STREET":"CLAYSVILLE","HISTORY":" ","ZIP":"65039","NOTES":" ","CITY":"HARTSBURG","DRIVEWAY_NUM":26478,"ADDRESS_NUM":671,"X":1709664,"Y":1031982,"Z":"1","EDIT_CODE":"0204BCGIS","ALIAS":"","GlobalID":"{00000000-0000-0000-0000-000000000000}"},"geometry":{"x":-92.257460430174049,"y":38.66749399573478}},{"attributes":{"OBJECTID":64579827,"HOUSENO":22500,"PRE_DIR":"S","SUFFIX":"LN","POST_DIR":" ","POST_QUAL":" ","APT":" ","CITY_LIMIT":"0","ACCURACY":"1","ASSESSOR":"2750015000180001","PRE_QUAL":" ","XCOORD":-92.268985279999995,"YCOORD":38.675531929999998,"STREET":"COONCE","HISTORY":" ","ZIP":"65039","NOTES":" ","CITY":"HARTSBURG","DRIVEWAY_NUM":218,"ADDRESS_NUM":698,"X":1706367,"Y":1034901,"Z":"1","EDIT_CODE":"0204BCGIS","ALIAS":"","GlobalID":"{00000000-0000-0000-0000-000000000000}"},"geometry":{"x":-92.268985284967641,"y":38.675531936778746}},{"attributes":{"OBJECTID":64579828,"HOUSENO":12901,"PRE_DIR":"S","SUFFIX":"RD","POST_DIR":" ","POST_QUAL":"","APT":"","CITY_LIMIT":"0","ACCURACY":"1","ASSESSOR":"2410106000180001","PRE_QUAL":" ","XCOORD":-92.325547819999997,"YCOORD":38.799738040000001,"STREET":"JOY","HISTORY":" ","ZIP":"65010","NOTES":" ","CITY":"ASHLAND","DRIVEWAY_NUM":24803,"ADDRESS_NUM":376,"X":1690133,"Y":1080099,"Z":"1","EDIT_CODE":"0204BCGIS","ALIAS":"","GlobalID":"{00000000-0000-0000-0000-000000000000}"},"geometry":{"x":-92.325547824648893,"y":38.799738048715518}},{"attributes":{"OBJECTID":64579829,"HOUSENO":1621,"PRE_DIR":"E","SUFFIX":"RD","POST_DIR":" ","POST_QUAL":" ","APT":" ","CITY_LIMIT":"0","ACCURACY":"1","ASSESSOR":"2410106000320601","PRE_QUAL":" ","XCOORD":-92.320127319999997,"YCOORD":38.79093142,"STREET":"LEO SMITH","HISTORY":" ","ZIP":"65010","NOTES":" ","CITY":"ASHLAND","DRIVEWAY_NUM":24785,"ADDRESS_NUM":392,"X":1691684,"Y":1076895,"Z":"1","EDIT_CODE":"0204BCGIS","ALIAS":"","GlobalID":"{00000000-0000-0000-0000-000000000000}"},"geometry":{"x":-92.320127326184718,"y":38.790931420969969}},{"attributes":{"OBJECTID":64579830,"HOUSENO":17351,"PRE_DIR":"S","SUFFIX":" ","POST_DIR":null,"POST_QUAL":"","APT":"","CITY_LIMIT":"0","ACCURACY":"1","ASSESSOR":"2480227000040101","PRE_QUAL":" ","XCOORD":-92.263505449999997,"YCOORD":38.74385127,"STREET":"OLD HWY 63","HISTORY":" ","ZIP":"65010","NOTES":" ","CITY":"ASHLAND","DRIVEWAY_NUM":24732,"ADDRESS_NUM":413,"X":1707867,"Y":1059785,"Z":"1","EDIT_CODE":"1102BCGIS","ALIAS":"","GlobalID":"{00000000-0000-0000-0000-000000000000}"},"geometry":{"x":-92.263505454740582,"y":38.743851273483024}},{"attributes":{"OBJECTID":64579831,"HOUSENO":17501,"PRE_DIR":"S","SUFFIX":" ","POST_DIR":null,"POST_QUAL":"","APT":"","CITY_LIMIT":"0","ACCURACY":"1","ASSESSOR":"2480227060010001","PRE_QUAL":" ","XCOORD":-92.263419519999999,"YCOORD":38.742488710000003,"STREET":"OLD HWY 63","HISTORY":" ","ZIP":"65010","NOTES":" ","CITY":"ASHLAND","DRIVEWAY_NUM":24734,"ADDRESS_NUM":414,"X":1707893,"Y":1059289,"Z":"1","EDIT_CODE":"1102BCGIS","ALIAS":"","GlobalID":"{00000000-0000-0000-0000-000000000000}"},"geometry":{"x":-92.263419521292363,"y":38.742488713813231}},{"attributes":{"OBJECTID":64579832,"HOUSENO":17801,"PRE_DIR":"S","SUFFIX":" ","POST_DIR":null,"POST_QUAL":" ","APT":" ","CITY_LIMIT":"0","ACCURACY":"1","ASSESSOR":"2480227000070001","PRE_QUAL":" ","XCOORD":-92.263685229999993,"YCOORD":38.738429080000003,"STREET":"OLD HWY 63","HISTORY":" ","ZIP":"65010","NOTES":" ","CITY":"ASHLAND","DRIVEWAY_NUM":24736,"ADDRESS_NUM":416,"X":1707821.0584,"Y":1057811.11515,"Z":"1","EDIT_CODE":"1506BCPZ","ALIAS":"","GlobalID":"{00000000-0000-0000-0000-000000000000}"},"geometry":{"x":-92.263685231884111,"y":38.73842907726609}},{"attributes":{"OBJECTID":64579833,"HOUSENO":13331,"PRE_DIR":"S","SUFFIX":"RD","POST_DIR":" ","POST_QUAL":" ","APT":" ","CITY_LIMIT":"0","ACCURACY":"1","ASSESSOR":"2430001000100001","PRE_QUAL":" ","XCOORD":-92.217036750000005,"YCOORD":38.789832820000001,"STREET":"RANGELINE","HISTORY":" ","ZIP":"65010","NOTES":" ","CITY":"ASHLAND","DRIVEWAY_NUM":23568,"ADDRESS_NUM":433,"X":1721068,"Y":1076569,"Z":"1","EDIT_CODE":"0204BCGIS","ALIAS":"","GlobalID":"{00000000-0000-0000-0000-000000000000}"},"geometry":{"x":-92.217036756533744,"y":38.789832823008943}},{"attributes":{"OBJECTID":64579834,"HOUSENO":13710,"PRE_DIR":"S","SUFFIX":"RD","POST_DIR":" ","POST_QUAL":" ","APT":" ","CITY_LIMIT":"0","ACCURACY":"1","ASSESSOR":"2430012000050201","PRE_QUAL":" ","XCOORD":-92.228737960000004,"YCOORD":38.787899930000002,"STREET":"ROBBIE FORBIS","HISTORY":" ","ZIP":"65010","NOTES":" ","CITY":"ASHLAND","DRIVEWAY_NUM":25029,"ADDRESS_NUM":454,"X":1717735,"Y":1075855,"Z":"1","EDIT_CODE":"0204BCGIS","ALIAS":"S FORBIS RD, ROBBIE FORBIS RD","GlobalID":"{00000000-0000-0000-0000-000000000000}"},"geometry":{"x":-92.22873796668074,"y":38.787899938418484}},{"attributes":{"OBJECTID":64579835,"HOUSENO":16651,"PRE_DIR":"S","SUFFIX":"RD","POST_DIR":" ","POST_QUAL":" ","APT":" ","CITY_LIMIT":"0","ACCURACY":"1","ASSESSOR":"2450321020080001","PRE_QUAL":" ","XCOORD":-92.288156209999997,"YCOORD":38.752993949999997,"STREET":"PALIS NICHOLS","HISTORY":" ","ZIP":"65039","NOTES":" ","CITY":"HARTSBURG","DRIVEWAY_NUM":25770,"ADDRESS_NUM":923,"X":1700828,"Y":1063098,"Z":"1","EDIT_CODE":"0204BCGIS","ALIAS":"","GlobalID":"{00000000-0000-0000-0000-000000000000}"},"geometry":{"x":-92.28815621014104,"y":38.75299395055}},{"attributes":{"OBJECTID":64579836,"HOUSENO":19530,"PRE_DIR":"S","SUFFIX":" ","POST_DIR":" ","POST_QUAL":" ","APT":" ","CITY_LIMIT":"0","ACCURACY":"1","ASSESSOR":"2480333000250001","PRE_QUAL":" ","XCOORD":-92.277695719999997,"YCOORD":38.7172567,"STREET":"RTE A","HISTORY":" ","ZIP":"65039","NOTES":" ","CITY":"HARTSBURG","DRIVEWAY_NUM":25944,"ADDRESS_NUM":953,"X":1703843,"Y":1050090,"Z":"1","EDIT_CODE":"1102BCGIS","ALIAS":"","GlobalID":"{00000000-0000-0000-0000-000000000000}"},"geometry":{"x":-92.277695722791947,"y":38.717256700137426}},{"attributes":{"OBJECTID":64579837,"HOUSENO":19700,"PRE_DIR":"S","SUFFIX":" ","POST_DIR":" ","POST_QUAL":"","APT":"","CITY_LIMIT":"0","ACCURACY":"1","ASSESSOR":"2720004000040201","PRE_QUAL":" ","XCOORD":-92.281390979999998,"YCOORD":38.71515745,"STREET":"RTE A","HISTORY":" ","ZIP":"65039","NOTES":" ","CITY":"HARTSBURG","DRIVEWAY_NUM":25951,"ADDRESS_NUM":961,"X":1702791,"Y":1049323,"Z":"1","EDIT_CODE":"1102BCGIS","ALIAS":"","GlobalID":"{00000000-0000-0000-0000-000000000000}"},"geometry":{"x":-92.281390988012632,"y":38.715157456523464}},{"attributes":{"OBJECTID":64579838,"HOUSENO":20201,"PRE_DIR":"S","SUFFIX":" ","POST_DIR":" ","POST_QUAL":" ","APT":" ","CITY_LIMIT":"0","ACCURACY":"1","ASSESSOR":"2720004000080001","PRE_QUAL":" ","XCOORD":-92.288097910000005,"YCOORD":38.709623960000002,"STREET":"RTE A","HISTORY":" ","ZIP":"65039","NOTES":" ","CITY":"HARTSBURG","DRIVEWAY_NUM":509,"ADDRESS_NUM":970,"X":1700882,"Y":1047303,"Z":"1","EDIT_CODE":"1102BCGIS","ALIAS":"","GlobalID":"{00000000-0000-0000-0000-000000000000}"},"geometry":{"x":-92.288097917814923,"y":38.709623962504033}},{"attributes":{"OBJECTID":64579839,"HOUSENO":593,"PRE_DIR":"E","SUFFIX":" ","POST_DIR":" ","POST_QUAL":" ","APT":" ","CITY_LIMIT":"0","ACCURACY":"1","ASSESSOR":"2360024010010001","PRE_QUAL":" ","XCOORD":-92.340530369999996,"YCOORD":38.75012134,"STREET":"RTE M","HISTORY":" ","ZIP":"65039","NOTES":" ","CITY":"HARTSBURG","DRIVEWAY_NUM":26393,"ADDRESS_NUM":999,"X":1685894,"Y":1062021,"Z":"1","EDIT_CODE":"1102BCGIS","ALIAS":"STATE HIGHWAY M","GlobalID":"{00000000-0000-0000-0000-000000000000}"},"geometry":{"x":-92.34053037688291,"y":38.750121342178076}},{"attributes":{"OBJECTID":64579840,"HOUSENO":881,"PRE_DIR":"E","SUFFIX":" ","POST_DIR":" ","POST_QUAL":" ","APT":" ","CITY_LIMIT":"0","ACCURACY":"1","ASSESSOR":"2360024000110001","PRE_QUAL":" ","XCOORD":-92.337406689999995,"YCOORD":38.751891800000003,"STREET":"RTE M","HISTORY":" ","ZIP":"65039","NOTES":" ","CITY":"HARTSBURG","DRIVEWAY_NUM":732,"ADDRESS_NUM":1003,"X":1686784,"Y":1062668,"Z":"1","EDIT_CODE":"1102BCGIS","ALIAS":"STATE HIGHWAY M","GlobalID":"{00000000-0000-0000-0000-000000000000}"},"geometry":{"x":-92.337406699845815,"y":38.751891800792414}},{"attributes":{"OBJECTID":64579841,"HOUSENO":2801,"PRE_DIR":"E","SUFFIX":" ","POST_DIR":" ","POST_QUAL":" ","APT":" ","CITY_LIMIT":"0","ACCURACY":"1","ASSESSOR":"2440017000150001","PRE_QUAL":" ","XCOORD":-92.302909940000006,"YCOORD":38.76848502,"STREET":"RTE M","HISTORY":" ","ZIP":"65039","NOTES":" ","CITY":"HARTSBURG","DRIVEWAY_NUM":26306,"ADDRESS_NUM":1032,"X":1696609,"Y":1068730,"Z":"1","EDIT_CODE":"1102BCGIS","ALIAS":"STATE HIGHWAY M","GlobalID":"{00000000-0000-0000-0000-000000000000}"},"geometry":{"x":-92.302909949784578,"y":38.768485023202132}},{"attributes":{"OBJECTID":64579842,"HOUSENO":260,"PRE_DIR":"W","SUFFIX":" ","POST_DIR":" ","POST_QUAL":" ","APT":" ","CITY_LIMIT":"0","ACCURACY":"1","ASSESSOR":"2390026000010001","PRE_QUAL":" ","XCOORD":-92.351347739999994,"YCOORD":38.745163650000002,"STREET":"RTE M","HISTORY":" ","ZIP":"65039","NOTES":" ","CITY":"HARTSBURG","DRIVEWAY_NUM":25039,"ADDRESS_NUM":1036,"X":1682812,"Y":1060211,"Z":"1","EDIT_CODE":"1102BCGIS","ALIAS":"STATE HIGHWAY M","GlobalID":"{00000000-0000-0000-0000-000000000000}"},"geometry":{"x":-92.35134774104327,"y":38.745163654800464}},{"attributes":{"OBJECTID":64579843,"HOUSENO":21855,"PRE_DIR":"S","SUFFIX":"RD","POST_DIR":" ","POST_QUAL":" ","APT":" ","CITY_LIMIT":"0","ACCURACY":"1","ASSESSOR":"2720010000230001","PRE_QUAL":" ","XCOORD":-92.259528860000003,"YCOORD":38.689767400000001,"STREET":"SOUTH MOUNT PLEASANT","HISTORY":" ","ZIP":"65039","NOTES":" ","CITY":"HARTSBURG","DRIVEWAY_NUM":0,"ADDRESS_NUM":1071,"X":1709053,"Y":1040092,"Z":"1","EDIT_CODE":"0204BCGIS","ALIAS":"","GlobalID":"{00000000-0000-0000-0000-000000000000}"},"geometry":{"x":-92.25952886335844,"y":38.689767400412919}},{"attributes":{"OBJECTID":64579844,"HOUSENO":22670,"PRE_DIR":"S","SUFFIX":"RD","POST_DIR":" ","POST_QUAL":" ","APT":" ","CITY_LIMIT":"0","ACCURACY":"1","ASSESSOR":"2750015000010001","PRE_QUAL":" ","XCOORD":-92.258238259999999,"YCOORD":38.67907203,"STREET":"SOUTH MOUNT PLEASANT","HISTORY":" ","ZIP":"65039","NOTES":" ","CITY":"HARTSBURG","DRIVEWAY_NUM":24382,"ADDRESS_NUM":1077,"X":1709431,"Y":1036198,"Z":"1","EDIT_CODE":"0204BCGIS","ALIAS":"","GlobalID":"{00000000-0000-0000-0000-000000000000}"},"geometry":{"x":-92.258238264396283,"y":38.679072037433144}},{"attributes":{"OBJECTID":64579845,"HOUSENO":20450,"PRE_DIR":"S","SUFFIX":"RD","POST_DIR":" ","POST_QUAL":"","APT":"","CITY_LIMIT":"0","ACCURACY":"1","ASSESSOR":"2720203020080001","PRE_QUAL":" ","XCOORD":-92.260532769999998,"YCOORD":38.706219470000001,"STREET":"TURKEY RIDGE","HISTORY":" ","ZIP":"65039","NOTES":" ","CITY":"HARTSBURG","DRIVEWAY_NUM":24989,"ADDRESS_NUM":1088,"X":1708750,"Y":1046083,"Z":"1","EDIT_CODE":"0607BCGIS","ALIAS":"","GlobalID":"{00000000-0000-0000-0000-000000000000}"},"geometry":{"x":-92.260532771304966,"y":38.706219474031485}},{"attributes":{"OBJECTID":64579846,"HOUSENO":4109,"PRE_DIR":"E","SUFFIX":"LN","POST_DIR":" ","POST_QUAL":" ","APT":" ","CITY_LIMIT":"0","ACCURACY":"1","ASSESSOR":"2480128040010001","PRE_QUAL":" ","XCOORD":-92.287345239999993,"YCOORD":38.734779580000001,"STREET":"WEST SNOWY HILLS","HISTORY":" ","ZIP":"65039","NOTES":" ","CITY":"HARTSBURG","DRIVEWAY_NUM":25819,"ADDRESS_NUM":1116,"X":1701075,"Y":1056465,"Z":"1","EDIT_CODE":"0204BCGIS","ALIAS":"","GlobalID":"{00000000-0000-0000-0000-000000000000}"},"geometry":{"x":-92.287345246245067,"y":38.734779580865208}},{"attributes":{"OBJECTID":64579847,"HOUSENO":22140,"PRE_DIR":"S","SUFFIX":"DR","POST_DIR":" ","POST_QUAL":" ","APT":" ","CITY_LIMIT":"0","ACCURACY":"1","ASSESSOR":"2760114000050001","PRE_QUAL":" ","XCOORD":-92.249555549999997,"YCOORD":38.684430069999998,"STREET":"WESTBROOK","HISTORY":" ","ZIP":"65039","NOTES":" ","CITY":"HARTSBURG","DRIVEWAY_NUM":23611,"ADDRESS_NUM":1133,"X":1711905,"Y":1038156,"Z":"1","EDIT_CODE":"0204BCGIS","ALIAS":"WESTBROOK WAY, WESTBROOK DR","GlobalID":"{00000000-0000-0000-0000-000000000000}"},"geometry":{"x":-92.249555551779636,"y":38.68443007901206}},{"attributes":{"OBJECTID":64579848,"HOUSENO":6551,"PRE_DIR":"E","SUFFIX":"RD","POST_DIR":" ","POST_QUAL":" ","APT":" ","CITY_LIMIT":"0","ACCURACY":"1","ASSESSOR":"2730002000040101","PRE_QUAL":" ","XCOORD":-92.24565131,"YCOORD":38.713269429999997,"STREET":"ZUMWALT","HISTORY":" ","ZIP":"65039","NOTES":" ","CITY":"HARTSBURG","DRIVEWAY_NUM":26419,"ADDRESS_NUM":1165,"X":1712990,"Y":1048662,"Z":"1","EDIT_CODE":"0204BCGIS","ALIAS":"","GlobalID":"{00000000-0000-0000-0000-000000000000}"},"geometry":{"x":-92.245651318818645,"y":38.713269431230849}},{"attributes":{"OBJECTID":64579849,"HOUSENO":7281,"PRE_DIR":"E","SUFFIX":"RD","POST_DIR":" ","POST_QUAL":" ","APT":" ","CITY_LIMIT":"0","ACCURACY":"1","ASSESSOR":"2730001000090001","PRE_QUAL":" ","XCOORD":-92.232453989999996,"YCOORD":38.70762053,"STREET":"ZUMWALT","HISTORY":" ","ZIP":"65039","NOTES":" ","CITY":"HARTSBURG","DRIVEWAY_NUM":26425,"ADDRESS_NUM":1173,"X":1716761,"Y":1046615,"Z":"1","EDIT_CODE":"0204BCGIS","ALIAS":"","GlobalID":"{00000000-0000-0000-0000-000000000000}"},"geometry":{"x":-92.232453995704958,"y":38.70762053920533}},{"attributes":{"OBJECTID":64579850,"HOUSENO":201,"PRE_DIR":"","SUFFIX":"DR","POST_DIR":" ","POST_QUAL":" ","APT":" ","CITY_LIMIT":"1","ACCURACY":"1","ASSESSOR":"2450200030250001","PRE_QUAL":" ","XCOORD":-92.260307100000006,"YCOORD":38.766531620000002,"STREET":"AMANDA","HISTORY":" ","ZIP":"65010","NOTES":" ","CITY":"ASHLAND","DRIVEWAY_NUM":0,"ADDRESS_NUM":1226,"X":1708757,"Y":1068048,"Z":"1","EDIT_CODE":"0207BCGIS","ALIAS":"","GlobalID":"{00000000-0000-0000-0000-000000000000}"},"geometry":{"x":-92.260307104839043,"y":38.766531623113075}},{"attributes":{"OBJECTID":64579851,"HOUSENO":302,"PRE_DIR":"","SUFFIX":"DR","POST_DIR":" ","POST_QUAL":" ","APT":" ","CITY_LIMIT":"1","ACCURACY":"1","ASSESSOR":"2450200030210001","PRE_QUAL":" ","XCOORD":-92.258441550000001,"YCOORD":38.765971860000001,"STREET":"AMANDA","HISTORY":" ","ZIP":"65010","NOTES":" ","CITY":"ASHLAND","DRIVEWAY_NUM":0,"ADDRESS_NUM":1235,"X":1709290,"Y":1067845,"Z":"1","EDIT_CODE":"0207BCGIS","ALIAS":"","GlobalID":"{00000000-0000-0000-0000-000000000000}"},"geometry":{"x":-92.258441550918803,"y":38.765971865631954}},{"attributes":{"OBJECTID":64579852,"HOUSENO":124,"PRE_DIR":"E","SUFFIX":" ","POST_DIR":" ","POST_QUAL":" ","APT":" ","CITY_LIMIT":"1","ACCURACY":"1","ASSESSOR":"2450800040330001","PRE_QUAL":" ","XCOORD":-92.260851829999993,"YCOORD":38.774352360000002,"STREET":"BROADWAY","HISTORY":" ","ZIP":"65010","NOTES":" ","CITY":"ASHLAND","DRIVEWAY_NUM":1659,"ADDRESS_NUM":1275,"X":1708595,"Y":1070895,"Z":"1","EDIT_CODE":"0207BCGIS","ALIAS":"STATE HIGHWAY Y","GlobalID":"{00000000-0000-0000-0000-000000000000}"},"geometry":{"x":-92.260851832632255,"y":38.774352369938121}},{"attributes":{"OBJECTID":64579853,"HOUSENO":107,"PRE_DIR":"W","SUFFIX":" ","POST_DIR":" ","POST_QUAL":" ","APT":" ","CITY_LIMIT":"1","ACCURACY":"1","ASSESSOR":"2421900100020001","PRE_QUAL":" ","XCOORD":-92.262789569999995,"YCOORD":38.77485618,"STREET":"BROADWAY","HISTORY":" ","ZIP":"65010","NOTES":" ","CITY":"ASHLAND","DRIVEWAY_NUM":2118,"ADDRESS_NUM":1283,"X":1708042,"Y":1071077,"Z":"1","EDIT_CODE":"0207BCGIS","ALIAS":"","GlobalID":"{00000000-0000-0000-0000-000000000000}"},"geometry":{"x":-92.262789574953317,"y":38.774856187708664}},{"attributes":{"OBJECTID":64579854,"HOUSENO":107,"PRE_DIR":"","SUFFIX":"ST","POST_DIR":" ","POST_QUAL":" ","APT":" ","CITY_LIMIT":"1","ACCURACY":"1","ASSESSOR":"2450700020230001","PRE_QUAL":" ","XCOORD":-92.263779880000001,"YCOORD":38.774004150000003,"STREET":"CHURCH","HISTORY":" ","ZIP":"65010","NOTES":" ","CITY":"ASHLAND","DRIVEWAY_NUM":2863,"ADDRESS_NUM":1303,"X":1707760,"Y":1070766,"Z":"1","EDIT_CODE":"0207BCGIS","ALIAS":"","GlobalID":"{00000000-0000-0000-0000-000000000000}"},"geometry":{"x":-92.263779880250866,"y":38.774004156929479}},{"attributes":{"OBJECTID":64579855,"HOUSENO":3051,"PRE_DIR":"E","SUFFIX":" ","POST_DIR":" ","POST_QUAL":" ","APT":" ","CITY_LIMIT":"0","ACCURACY":"1","ASSESSOR":"2440017000100001","PRE_QUAL":" ","XCOORD":-92.299822160000005,"YCOORD":38.773316020000003,"STREET":"RTE M","HISTORY":" ","ZIP":"65010","NOTES":" ","CITY":"ASHLAND","DRIVEWAY_NUM":16422,"ADDRESS_NUM":471,"X":1697485,"Y":1070491,"Z":"1","EDIT_CODE":"1102BCGIS","ALIAS":"STATE HIGHWAY M","GlobalID":"{00000000-0000-0000-0000-000000000000}"},"geometry":{"x":-92.299822160444506,"y":38.773316020812558}},{"attributes":{"OBJECTID":64579856,"HOUSENO":5706,"PRE_DIR":"E","SUFFIX":"RD","POST_DIR":" ","POST_QUAL":" ","APT":" ","CITY_LIMIT":"0","ACCURACY":"1","ASSESSOR":"2720203010060001","PRE_QUAL":" ","XCOORD":-92.256810709999996,"YCOORD":38.706080419999999,"STREET":"LEE","HISTORY":" ","ZIP":"65039","NOTES":" ","CITY":"HARTSBURG","DRIVEWAY_NUM":26445,"ADDRESS_NUM":496,"X":1709813,"Y":1046035,"Z":"1","EDIT_CODE":"0204BCGIS","ALIAS":"","GlobalID":"{00000000-0000-0000-0000-000000000000}"},"geometry":{"x":-92.256810715086417,"y":38.706080422685346}},{"attributes":{"OBJECTID":64579857,"HOUSENO":4003,"PRE_DIR":"E","SUFFIX":"CT","POST_DIR":" ","POST_QUAL":" ","APT":" ","CITY_LIMIT":"0","ACCURACY":"1","ASSESSOR":"2450116040110001","PRE_QUAL":" ","XCOORD":-92.284066339999995,"YCOORD":38.76632506,"STREET":"LIBERTY WOODS","HISTORY":" ","ZIP":"65039","NOTES":" ","CITY":"HARTSBURG","DRIVEWAY_NUM":25743,"ADDRESS_NUM":516,"X":1701983,"Y":1067956,"Z":"1","EDIT_CODE":"0204BCGIS","ALIAS":"","GlobalID":"{00000000-0000-0000-0000-000000000000}"},"geometry":{"x":-92.284066340456931,"y":38.766325060978652}},{"attributes":{"OBJECTID":64579858,"HOUSENO":7151,"PRE_DIR":"E","SUFFIX":" ","POST_DIR":" ","POST_QUAL":" ","APT":" ","CITY_LIMIT":"0","ACCURACY":"1","ASSESSOR":"2430011010010001","PRE_QUAL":" ","XCOORD":-92.234594970000003,"YCOORD":38.774323180000003,"STREET":"RTE Y","HISTORY":" ","ZIP":"65010","NOTES":" ","CITY":"ASHLAND","DRIVEWAY_NUM":26235,"ADDRESS_NUM":521,"X":1716080,"Y":1070905,"Z":"1","EDIT_CODE":"1102BCGIS","ALIAS":"STATE HIGHWAY Y","GlobalID":"{00000000-0000-0000-0000-000000000000}"},"geometry":{"x":-92.234594978729717,"y":38.774323181741487}}]}
